"","lon","lat","type","loctype","address","north","south","east","west","street_number","route","locality","administrative_area_level_1","country"
"1",-84.033099,41.875121,"street_address","rooftop","1515 E. US 223, Adrian, MI, US",41.876121,41.874121,-84.032099,-84.034099,"1515","US Hwy 223","Adrian","MI","United States"
"2",-83.202686,42.275876,"street_address","rooftop","23005 Outer Drive, Allen Park, MI, US",42.276876,42.274876,-83.201686,-83.203686,"23701","Outer Dr","Allen Park","MI","United States"
"3",-83.195732,42.295711,"street_address","rooftop","3100 Fairlane Dr, Allen Park, MI, US",42.296711,42.294711,-83.194732,-83.196732,"2998","Fairlane Dr","Allen Park","MI","United States"
"4",-85.890039,42.964481,"street_address","rooftop","1 Campus Dr, Allendale, MI, US",42.965481,42.963481,-85.889039,-85.891039,"1","N Campus Dr","Allendale","MI","United States"
"5",-85.943198,42.972148,"street_address","rooftop","6370 Lake Michigan Dr Ste 100, Allendale, MI, US",42.973148,42.971148,-85.942198,-85.944198,"6370","Lake Michigan Dr","Allendale","MI","United States"
"6",-84.665401,43.379063,"street_address","rooftop","328 W Superior St, Alma, MI, US",43.380063,43.378063,-84.664401,-84.666401,"328","W Superior St","Alma","MI","United States"
"7",-83.93557,42.239892,"street_address","rooftop","2000 Waters Rd, Glencoe Crossing Shopping Center, Ann Arbor, MI, US",42.240892,42.238892,-83.93457,-83.93657,"10500","Waters Rd","Ann Arbor","MI","United States"
"8",-83.670625,42.251904,"street_address","rooftop","4585 Washtenaw Ave, Briarwood Mall, Ann Arbor, MI, US",42.252904,42.250904,-83.669625,-83.671625,"4585","Washtenaw Ave","Ann Arbor","MI","United States"
"9",NA,NA,NA,NA,NA,NA,NA,NA,NA,NA,NA,NA,NA,NA
"10",-83.7382,42.273331,"street_address","rooftop","701 Tappan Avenue, Ann Arbor, MI, US",42.274331,42.272331,-83.7372,-83.7392,"701","Tappan Ave","Ann Arbor","MI","United States"
"11",-83.734421,42.274946,"street_address","rooftop","1214 South University Ave, Ann Arbor, MI, US",42.275946,42.273946,-83.733421,-83.735421,"1214","S University Ave","Ann Arbor","MI","United States"
"12",-83.740756,42.274722,"street_address","rooftop","530 S State, Ann Arbor, MI, US",42.275722,42.273722,-83.739756,-83.741756,"530","S State St","Ann Arbor","MI","United States"
"13",-83.780271,42.277313,"street_address","rooftop","400 S Maple, Ann Arbor, MI, US",42.278313,42.276313,-83.779271,-83.781271,"400","S Maple Rd","Ann Arbor","MI","United States"
"14",-83.766771,42.242541,"street_address","rooftop","3145 Ann Arbor Saline Rd, Ann Arbor, MI, US",42.243541,42.241541,-83.765771,-83.767771,"3145","Ann Arbor-Saline Rd","Ann Arbor","MI","United States"
"15",-83.740901,42.280075,"street_address","rooftop","222 S State, Ann Arbor, MI, US",42.281075,42.279075,-83.739901,-83.741901,"222","S State St","Ann Arbor","MI","United States"
"16",-83.838533,42.285205,"street_address","rooftop","120 S. Zeeb Rd, Suite 101, Ann Arbor, MI, US",42.286205,42.284205,-83.837533,-83.839533,"120","S Zeeb Rd","Ann Arbor","MI","United States"
"17",-83.70623,42.302643,"street_address","rooftop","2793 Plymouth Rd., Arborland Shopping Center, Ann Arbor, MI, US",42.303643,42.301643,-83.70523,-83.70723,"2793","Plymouth Rd","Ann Arbor","MI","United States"
"18",-83.689835,42.255705,"street_address","rooftop","3601  Washtenaw  Ave., Ann Arbor, MI, US",42.256705,42.254705,-83.688835,-83.690835,"3601","Washtenaw Ave","Ann Arbor","MI","United States"
"19",-83.748564,42.279587,"street_address","rooftop","300 South Main Street, Briarwood Mall, Ann Arbor, MI, US",42.280587,42.278587,-83.747564,-83.749564,"300","S Main St","Ann Arbor","MI","United States"
"20",-83.87338,42.244496,"street_address","rooftop","100 Briarwood Mall Cir, Suite K105, Ann Arbor, MI, US",42.245496,42.243496,-83.87238,-83.87438,"2700","Sitka Ct","Ann Arbor","MI","United States"
"21",-83.804348,42.291903,"street_address","rooftop","3749 Carpenter Rd., Great Lakes Crossing, Ann Arbor East, MI, US",42.292903,42.290903,-83.803348,-83.805348,"3749","Ann Arbor St","Ann Arbor","MI","United States"
"22",-83.306923,42.700593,"street_address","rooftop","4122 Baldwin Rd., Auburn Hills, MI, US",42.701593,42.699593,-83.305923,-83.307923,"4122","Baldwin Rd","Auburn Hills","MI","United States"
"23",-83.306483,42.699117,"street_address","rooftop","4000 Baldwin Road, Auburn Hills, MI, US",42.700117,42.698117,-83.305483,-83.307483,"4000","Baldwin Rd","Auburn Hills","MI","United States"
"24",-83.260158,42.70824,"street_address","rooftop","650 Brown Rd, Harper Village, Auburn Hills, MI, US",42.70924,42.70724,-83.259158,-83.261158,"650","Brown Rd","Auburn Hills","MI","United States"
"25",-85.179507,42.261121,"street_address","rooftop","5997 Beckley Road, Battle Creek, MI, US",42.262121,42.260121,-85.178507,-85.180507,"5997","Beckley Rd","Battle Creek","MI","United States"
"26",-85.18468,42.318022,"street_address","rooftop","50 Capital Ave SW, Battle Creek, MI, US",42.319022,42.317022,-85.18368,-85.18568,"50","Capital Ave SW","Battle Creek","MI","United States"
"27",NA,NA,NA,NA,NA,NA,NA,NA,NA,NA,NA,NA,NA,NA
"28",-83.485117,42.223121,"street_address","rooftop","10777 Belleville Rd., Belleville, MI, US",42.224121,42.222121,-83.484117,-83.486117,"10777","Belleville Rd","Belleville","MI","United States"
"29",-85.483493,43.687563,"street_address","rooftop","1201 S State St, Big Rapids, MI, US",43.688563,43.686563,-85.482493,-85.484493,"1201","S State St","Big Rapids","MI","United States"
"30",-85.479812,43.689833,"street_address","rooftop","805 Campus Dr, Big Rapids, MI, US",43.690833,43.688833,-85.478812,-85.480812,"805","Campus Dr","Big Rapids","MI","United States"
"31",-83.786852,43.250155,"street_address","rooftop","8615 Main Street, Birch Run, MI, US",43.251155,43.249155,-83.785852,-83.787852,"8615","Main St","Birch Run","MI","United States"
"32",-83.21,42.546903,"street_address","rooftop","685 E Maple Rd, Birmingham, MI, US",42.547903,42.545903,-83.209,-83.211,"685","E Maple Rd","Birmingham","MI","United States"
"33",-83.214137,42.546625,"street_address","rooftop","135 S Old Woodward, Birmingham, MI, US",42.547625,42.545625,-83.213137,-83.215137,"135","S Old Woodward Ave","Birmingham","MI","United States"
"34",-83.276291,42.538343,"street_address","rooftop","4036 Telegraph Road, Woodward Square, Bloomfield, MI, US",42.539343,42.537343,-83.275291,-83.277291,"2098","Bloomfield Dr","Bloomfield Hills","MI","United States"
"35",-83.261074,42.600094,"street_address","rooftop","42825 Woodward Ave, Village Knoll Shopping Center, Bloomfield Hills, MI, US",42.601094,42.599094,-83.260074,-83.262074,"42399","Woodward Ave","Bloomfield Hills","MI","United States"
"36",-83.75794,43.459065,"street_address","rooftop","3584 W. Maple Road, Space 15, Bloomfield Hills, MI, US",43.460065,43.458065,-83.75694,-83.75894,"3584","State Hwy 15","Reese","MI","United States"
"37",-83.285318,42.546001,"street_address","rooftop","6420 Telegraph Rd., Bloomfield Township, MI, US",42.547001,42.545001,-83.284318,-83.286318,"6420","Telegraph Rd","Bloomfield Hills","MI","United States"
"38",-83.303538,42.610638,"street_address","rooftop","2116 S. Telegraph Road, Bloomfield Township, MI, US",42.611638,42.609638,-83.302538,-83.304538,"1937","S Telegraph Rd","Bloomfield Hills","MI","United States"
"39",-83.303538,42.610638,"street_address","rooftop","2400 S Telegraph Rd, Bloomfield Township, MI, US",42.611638,42.609638,-83.302538,-83.304538,"1937","S Telegraph Rd","Bloomfield Hills","MI","United States"
"40",-85.015199,45.219615,"street_address","rooftop","430 N Lake St, Boyne City, MI, US",45.220615,45.218615,-85.014199,-85.016199,"430","N Lake St","Boyne City","MI","United States"
"41",-83.7885,42.544396,"street_address","rooftop","8481 W. Grand River Ave, Brighton, MI, US",42.545396,42.543396,-83.7875,-83.7895,"8481","W Grand River Ave","Brighton","MI","United States"
"42",-83.79307,42.543823,"street_address","rooftop","8043 Challis Rd, Brighton, MI, US",42.544823,42.542823,-83.79207,-83.79407,"8043","Challis Rd","Brighton","MI","United States"
"43",-83.785756,42.539442,"street_address","rooftop","8650 W Grand River Ave, Brighton, MI, US",42.540442,42.538442,-83.784756,-83.786756,"8650","W Grand River Ave","Brighton","MI","United States"
"44",-83.025358,43.153596,"street_address","rooftop","20645 Gibralter Road, Brownstown, MI, US",43.154596,43.152596,-83.024358,-83.026358,"8361","Brown City Rd","Brown City","MI","United States"
"45",-85.654346,42.811609,"street_address","rooftop","396 84th Street, Suite 1100, Byron Center, MI, US",42.812609,42.810609,-85.653346,-85.655346,"396","84th St SE","Byron Center","MI","United States"
"46",-85.524437,42.81868,"locality","rooftop","1801 Marketplace Dr, Caledonia, MI, US",42.81968,42.81768,-85.523437,-85.525437,NA,NA,"Caledonia","MI","United States"
"47",-85.507024,42.794803,"street_address","rooftop","9375 Cherry Valley Ave SE, Caledonia, MI, US",42.795803,42.793803,-85.506024,-85.508024,"9375","Cherry Valley Ave SE","Caledonia","MI","United States"
"48",-85.524437,42.81868,"locality","rooftop","1925 Marketplace Dr, Caledonia, MI, US",42.81968,42.81768,-85.523437,-85.525437,NA,NA,"Caledonia","MI","United States"
"49",-83.486761,42.297058,"street_address","rooftop","1905 Canton Center Rd, Canton, MI, US",42.298058,42.296058,-83.485761,-83.487761,"1905","S Canton Center Rd","Canton","MI","United States"
"50",-83.452549,42.322748,"street_address","rooftop","41775 Ford Road, Canton, MI, US",42.323748,42.321748,-83.451549,-83.453549,"41775","Ford Rd","Canton","MI","United States"
"51",-83.434218,42.323432,"street_address","rooftop","39940 Ford Rd., Canton, MI, US",42.324432,42.322432,-83.433218,-83.435218,"39940","Ford Rd","Canton","MI","United States"
"52",-83.50453,42.267461,"street_address","rooftop","47330 Michigan Ave, Canton, MI, US",42.268461,42.266461,-83.50353,-83.50553,"47330","Michigan Ave","Canton","MI","United States"
"53",-82.8067,42.67883,"null","approximate","27900 23 Mile Rd, Chesterfield Township, MI, US",42.7068634033,42.6199378967,-82.7336349487,-82.9103622437,NA,NA,NA,NA,"USA"
"54",-82.8067,42.67883,"null","approximate","51400 Gratiot Ave, Chesterfield Township, MI, US",42.7068634033,42.6199378967,-82.7336349487,-82.9103622437,NA,NA,NA,NA,"USA"
"55",-83.379498,42.730878,"street_address","rooftop","6320 Sashabaw Road, Clarkston, MI, US",42.731878,42.729878,-83.378498,-83.380498,"6320","Sashabaw Rd","Clarkston","MI","United States"
"56",-83.416442,42.71892,"street_address","rooftop","6677 Dixie Highway, Clarkston, MI, US",42.71992,42.71792,-83.415442,-83.417442,"6677","Dixie Hwy","Clarkston","MI","United States"
"57",-82.905188,42.546027,"street_address","rooftop","33860 S Gratiot Ave, Clinton Pointe, MI, US",42.547027,42.545027,-82.904188,-82.906188,"33860","S Gratiot Ave","Clinton Township","MI","United States"
"58",-82.90151,42.601807,"street_address","rooftop","24798 Rosso Hwy, The Mall at Partridge Creek, Clinton Township, MI, US",42.602807,42.600807,-82.90051,-82.90251,"41000","Rose Ln","Clinton Township","MI","United States"
"59",-82.948162,42.627606,"street_address","rooftop","17410 Hall Road, 174, Partridge Creek, Clinton Township, MI, US",42.628606,42.626606,-82.947162,-82.949162,"17410","Hall Rd","Clinton Township","MI","United States"
"60",NA,NA,NA,NA,NA,NA,NA,NA,NA,NA,NA,NA,NA,NA
"61",-83.446073,42.595696,"street_address","rooftop","2733 Union Lake Rd, Commerce Township, MI, US",42.596696,42.594696,-83.445073,-83.447073,"2733","Union Lake Rd","Commerce","MI","United States"
"62",-83.541376,43.034394,"street_address","rooftop","8503 Davison Rd, Fairlane Town Center, Davison, MI, US",43.035394,43.033394,-83.540376,-83.542376,"8503","Davison Rd","Davison","MI","United States"
"63",-83.253548,42.299834,"street_address","rooftop","18900 Michigan Ave., Ste. H314, Dearborn, MI, US",42.300834,42.298834,-83.252548,-83.254548,"1398","Haigh St","Dearborn","MI","United States"
"64",-83.246831,42.305429,"street_address","rooftop","22155 Michigan Ave., Dearborn, MI, US",42.306429,42.304429,-83.245831,-83.247831,"22155","Michigan Ave","Dearborn","MI","United States"
"65",-83.169053,42.324089,"street_address","rooftop","12921 Michigan Ave, Fordview Plaza, Dearborn, MI, US",42.325089,42.323089,-83.168053,-83.170053,"12921","Michigan Ave","Dearborn","MI","United States"
"66",-83.298899,42.326353,"street_address","rooftop","26425 Ford Road, Dearborn Heights, MI, US",42.327353,42.325353,-83.297899,-83.299899,"26425","Ford Rd","Dearborn Heights","MI","United States"
"67",-83.302229,42.326447,"street_address","rooftop","26650 Ford Rd, Dearborn Heights, MI, US",42.327447,42.325447,-83.301229,-83.303229,"26650","Ford Rd","Dearborn Heights","MI","United States"
"68",-83.040602,42.329772,"street_address","rooftop","Detroit Metropolitan Airport, Renaissance Center, Detroit, MI, US",42.330772,42.328772,-83.039602,-83.041602,"182","Renaissance Center","Detroit","MI","United States"
"69",-83.040602,42.329772,"street_address","rooftop","Renaissance Center, Detroit, MI, US",42.330772,42.328772,-83.039602,-83.041602,"182","Renaissance Center","Detroit","MI","United States"
"70",-83.058023,42.347796,"street_address","rooftop","3670 Woodward Avenue, Detroit, MI, US",42.348796,42.346796,-83.057023,-83.059023,"3670","Woodward Ave","Detroit","MI","United States"
"71",-83.068983,42.355353,"street_address","rooftop","5221 GULLEN MALL, Detroit, MI, US",42.356353,42.354353,-83.067983,-83.069983,"5401","Gullen Mall","Detroit","MI","United States"
"72",-82.926266,42.400693,"street_address","rooftop","Detroit Metropolitan Airport, Detroit, MI, US",42.401693,42.399693,-82.925266,-82.927266,"17101","Detroit St","Detroit","MI","United States"
"73",-83.041443,42.336292,"street_address","rooftop","1200 Saint Antoine St, Detroit, MI, US",42.337292,42.335292,-83.040443,-83.042443,"1300","Saint Antoine St","Detroit","MI","United States"
"74",-83.04672,42.331179,"street_address","rooftop","777 Woodward AVE STE 140, Detroit, MI, US",42.332179,42.330179,-83.04572,-83.04772,"777","Woodward Ave","Detroit","MI","United States"
"75",-83.132382,42.446279,"street_address","rooftop","1327 W 8 Mile Rd, Detroit, MI, US",42.447279,42.445279,-83.131382,-83.133382,"2805","W 8 Mile Rd","Detroit","MI","United States"
"76",-82.985641,42.423026,"street_address","rooftop","3990 JOHN ST, DETROIT, MI, US",42.424026,42.422026,-82.984641,-82.986641,"12600","Joann St","Detroit","MI","United States"
"77",-83.068983,42.355353,"street_address","rooftop","5221 Gullen Mall, Detroit, MI, US",42.356353,42.354353,-83.067983,-83.069983,"5401","Gullen Mall","Detroit","MI","United States"
"78",-82.99816,42.355945,"street_address","rooftop","2500 West G Rogell Drive, Detroit, MI, US",42.356945,42.354945,-82.99716,-82.99916,"8000","Coe Ave","Detroit","MI","United States"
"79",-85.615053,42.950666,"street_address","rooftop","2172 Wealthy Street, East Grand Rapids, MI, US",42.951666,42.949666,-85.614053,-85.616053,"2172","Wealthy St SE","Grand Rapids","MI","United States"
"80",-84.573644,42.70344,"street_address","rooftop","114 Wells Hall, East Lansing, MI, US",42.70444,42.70244,-84.572644,-84.574644,"1600","Holly Way","Lansing","MI","United States"
"81",-84.492476,42.733923,"street_address","rooftop","103 Eppley Ctr, East Lansing, MI, US",42.734923,42.732923,-84.491476,-84.493476,"103","Center St","East Lansing","MI","United States"
"82",-84.47988,42.734193,"street_address","rooftop","401 East Grand River Avenue, East Lansing, MI, US",42.735193,42.733193,-84.47888,-84.48088,"401","E Grand River Ave","East Lansing","MI","United States"
"83",-84.550692,42.72122,"street_address","rooftop","1141 E. Grand River, East Lansing, MI, US",42.72222,42.72022,-84.549692,-84.551692,"1141","S Grand Ave","Lansing","MI","United States"
"84",-84.501168,42.760763,"street_address","rooftop","1350 W Lake Lansing Rd, Downtown Farmington Center F2, East Lansing, MI, US",42.761763,42.759763,-84.500168,-84.502168,"1350","W Lake Lansing Rd","East Lansing","MI","United States"
"85",-83.367021,42.509993,"street_address","rooftop","33199 Grand River, Farmington, MI, US",42.510993,42.508993,-83.366021,-83.368021,"32099","Coronet Dr","Farmington","MI","United States"
"86",-83.341711,42.4505,"street_address","rooftop","30020 Grand River Ave, Farmington Hills, MI, US",42.4515,42.4495,-83.340711,-83.342711,"30020","Grand River Ave","Farmington","MI","United States"
"87",-83.358977,42.504604,"street_address","rooftop","27835 Orchard Lake Rd., Farmington Hills, MI, US",42.505604,42.503604,-83.357977,-83.359977,"27835","Orchard Lake Rd","Farmington","MI","United States"
"88",-83.733032,42.789814,"street_address","rooftop","3255 Owen Rd, Fenton, MI, US",42.790814,42.788814,-83.732032,-83.734032,"3255","Owen Rd","Fenton","MI","United States"
"89",-83.739274,42.794131,"street_address","rooftop","18005 Silver Pkwy, Fenton, MI, US",42.795131,42.793131,-83.738274,-83.740274,"18005","Silver Pkwy","Fenton","MI","United States"
"90",-83.707368,42.814322,"street_address","rooftop","1390 N Leroy St, Pro Clean Center, Fenton, MI, US",42.815322,42.813322,-83.706368,-83.708368,"1390","N Leroy St","Fenton","MI","United States"
"91",-83.636469,43.018625,"street_address","rooftop","3822 E. Court Street, Flint, MI, US",43.019625,43.017625,-83.635469,-83.637469,"3822","E Court St","Flint","MI","United States"
"92",-83.771391,42.975999,"street_address","rooftop","3243 Miller Rd, Flint, MI, US",42.976999,42.974999,-83.770391,-83.772391,"3241","Miller Rd","Flint","MI","United States"
"93",-82.456229,43.033444,"street_address","rooftop","4300 24th Ave, Fort Gratiot, MI, US",43.034444,43.032444,-82.455229,-82.457229,"4300","24th Ave","Fort Gratiot","MI","United States"
"94",-82.456246,43.030332,"street_address","rooftop","4216 24th Avenue, Ste. 200, Fort Gratiot, MI, US",43.031332,43.029332,-82.455246,-82.457246,"4216","24th Ave","Fort Gratiot","MI","United States"
"95",-86.437302,43.770839,"locality","rooftop","2080 N Telegraph Rd, Frenchtown Township, MI, US",43.771839,43.769839,-86.436302,-86.438302,NA,NA,"Pentwater","MI","United States"
"96",-84.686167,45.027401,"street_address","rooftop","1060 W. Main Street, Gaylord, MI, US",45.028401,45.026401,-84.685167,-84.687167,"898","W Main St","Gaylord","MI","United States"
"97",-84.686935,45.027326,"street_address","rooftop","829 W Main St, Gaylord, MI, US",45.028326,45.026326,-84.685935,-84.687935,"829","W Main St","Gaylord","MI","United States"
"98",-83.599096,42.887336,"street_address","rooftop","11353 South Saginaw St, Grand Blanc, MI, US",42.888336,42.886336,-83.598096,-83.600096,"9599","S Saginaw St","Grand Blanc","MI","United States"
"99",-86.219858,43.06849,"street_address","rooftop","426 North Beacon Blvd., Grand Haven, MI, US",43.06949,43.06749,-86.218858,-86.220858,"601","N Beacon Blvd","Grand Haven","MI","United States"
"100",-86.214141,43.044519,"street_address","rooftop","1116 Robbins Rd, Grand Haven, MI, US",43.045519,43.043519,-86.213141,-86.215141,"1116","Robbins Rd","Grand Haven","MI","United States"
"101",-86.196467,42.99393,"street_address","rooftop","15000 US 31, Grand Haven, MI, US",42.99493,42.99293,-86.195467,-86.197467,"12798","US Hwy 31","Grand Haven","MI","United States"
"102",-85.536392,42.916857,"street_address","rooftop","5120 28th Ave SE, Family Fare Shopping Center, Grand Rapids, MI, US",42.917857,42.915857,-85.535392,-85.537392,"5300","28 Ct SE","Grand Rapids","MI","United States"
"103",-85.579926,43.055856,"street_address","rooftop","5221 Northland Drive, Grand Rapids, MI, US",43.056856,43.054856,-85.578926,-85.580926,"5221","Northland Dr NE","Grand Rapids","MI","United States"
"104",-85.591709,42.914133,"street_address","rooftop","1814 Breton Road SE, Woodland, Grand Rapids, MI, US",42.915133,42.913133,-85.590709,-85.592709,"3100","Woodland Dr","Grand Rapids","MI","United States"
"105",15,62,"country","approximate","3195 28th Street SE, #D113, Grand Rapids, MI, US",68.7032394409,54.9981002808,24.160200119,10.5934715271,NA,NA,NA,NA,"Sweden"
"106",-85.776348,42.970605,"street_address","rooftop","315 Wilson Ave NW, Grand Rapids, MI, US",42.971605,42.969605,-85.775348,-85.777348,"315","Wilson Ave NW","Grand Rapids","MI","United States"
"107",-85.5764,42.937818,"street_address","rooftop","2755 Lake Michigan Dr NW, MSD FOOD COURT, Grand Rapids, MI, US",42.938818,42.936818,-85.5754,-85.5774,"1399","Old Lake Ct SE","Grand Rapids","MI","United States"
"108",-85.668728,42.970522,"street_address","rooftop","35 Michigan Street, Suite 1900, Grand Rapids, MI, US",42.971522,42.969522,-85.667728,-85.669728,"35","Michigan St NW","Grand Rapids","MI","United States"
"109",-85.678496,42.963345,"street_address","rooftop","401 Fulton St W, Grand Rapids, MI, US",42.964345,42.962345,-85.677496,-85.679496,"399","Fulton St W","Grand Rapids","MI","United States"
"110",-85.614746,42.950674,"street_address","rooftop","2181 Wealthy SE, Grand Rapids, MI, US",42.951674,42.949674,-85.613746,-85.615746,"2181","Wealthy St SE","Grand Rapids","MI","United States"
"111",-85.583582,42.91322,"street_address","rooftop","2757 E. Beltline Ave SE, Gerald R Ford International Airport, Grand Rapids, MI, US",42.91422,42.91222,-85.582582,-85.584582,"2757","E Beltline Ave SE","Grand Rapids","MI","United States"
"112",-85.531631,42.885864,"street_address","rooftop","5500 44th St SE, Concourse A - Food Court, Grand Rapids, MI, US",42.886864,42.884864,-85.530631,-85.532631,"5500","44th St SE","Grand Rapids","MI","United States"
"113",-85.531227,42.916991,"street_address","rooftop","5531 28th St SE, Woodland Mall, Grand Rapids, MI, US",42.917991,42.915991,-85.530227,-85.532227,"5531","28 Ct SE","Grand Rapids","MI","United States"
"114",-85.536392,42.916857,"street_address","rooftop","3195 28th Street SE, Cascade Center, Grand Rapids, MI, US",42.917857,42.915857,-85.535392,-85.537392,"5301","28 Ct SE","Grand Rapids","MI","United States"
"115",-85.529781,42.916046,"street_address","rooftop","6425 28th St SE, Grand Rapids, MI, US",42.917046,42.915046,-85.528781,-85.530781,"5599","28 Ct SE","Grand Rapids","MI","United States"
"116",NA,NA,NA,NA,NA,NA,NA,NA,NA,NA,NA,NA,NA,NA
"117",-85.295368,42.655299,"street_address","rooftop","5070 28th Street SE, Suite D, Grand Rapids, MI, US",42.656299,42.654299,-85.294368,-85.296368,"600","W State Rd","Grand Rapids","MI","United States"
"118",-85.529781,42.916046,"street_address","rooftop","6425 28th St SE, Celebration Village, Grand Rapids, MI, US",42.917046,42.915046,-85.528781,-85.530781,"5599","28 Ct SE","Grand Rapids","MI","United States"
"119",-85.590546,43.000081,"street_address","rooftop","2107 East Beltline Ave, Grand Rapids, MI, US",43.001081,42.999081,-85.589546,-85.591546,"2107","E Beltline Ave NE","Grand Rapids","MI","United States"
"120",-85.672242,42.966803,"street_address","rooftop","187 Monroe Ave NW, Grand Rapids, MI, US",42.967803,42.965803,-85.671242,-85.673242,"187","Monroe Ave NW","Grand Rapids","MI","United States"
"121",-85.590076,42.998791,"street_address","rooftop","2000 E Beltline Ave NE, Grand Rapids, MI, US",42.999791,42.997791,-85.589076,-85.591076,"2000","E Beltline Ave NE","Grand Rapids","MI","United States"
"122",-85.689062,43.02278,"street_address","rooftop","3248 Alpine Ave NW, Grand Rapids, MI, US",43.02378,43.02178,-85.688062,-85.690062,"3248","Alpine Ave NW","Grand Rapids","MI","United States"
"123",-85.509855,42.921033,"street_address","rooftop","6448 Cascade Rd, Grand Rapids, MI, US",42.922033,42.920033,-85.508855,-85.510855,"6448","Cascade Pt","Grand Rapids","MI","United States"
"124",-85.493021,42.934447,"street_address","rooftop","1997 Beltline Ave NE, RiverTown Crossing, Grand Rapids, MI, US",42.935447,42.933447,-85.492021,-85.494021,"1699","Riverton Ave SE","Grand Rapids","MI","United States"
"125",NA,NA,NA,NA,NA,NA,NA,NA,NA,NA,NA,NA,NA,NA
"126",-85.745917,42.881595,"street_address","rooftop","3434 Century Ctr Dr SW, Grandville, MI, US",42.882595,42.880595,-85.744917,-85.746917,"3434","Century Center St SW","Grandville","MI","United States"
"127",-85.761621,42.88452,"street_address","rooftop","3960 44th Street SW, Grandville, MI, US",42.88552,42.88352,-85.760621,-85.762621,"3960","44th St SW","Grandville","MI","United States"
"128",-85.741629,42.884583,"street_address","rooftop","3130 44th St SW, Grandville, MI, US",42.885583,42.883583,-85.740629,-85.742629,"3130","44th St SW","Grandville","MI","United States"
"129",-83.155606,42.13054,"street_address","rooftop","8999 Macomb, Grosse Ile, MI, US",42.13154,42.12954,-83.154606,-83.156606,"8999","Macomb St","Grosse Ile","MI","United States"
"130",-82.915303,42.384368,"street_address","rooftop","468 Cadieux Rd, La Strega, Grosse Pointe, MI, US",42.385368,42.383368,-82.914303,-82.916303,"468","Cadieux Rd","Grosse Pointe","MI","United States"
"131",-82.916949,42.389863,"street_address","rooftop","17001 Kercheval Ave, Grosse Pointe, MI, US",42.390863,42.388863,-82.915949,-82.917949,"16825","Kercheval Ave","Grosse Pointe","MI","United States"
"132",-82.909688,42.427727,"street_address","rooftop","19727 Mack Avenue, Grosse Pointe, MI, US",42.428727,42.426727,-82.908688,-82.910688,"19727","Mack Ave","Grosse Pointe","MI","United States"
"133",-82.92785,42.448395,"street_address","rooftop","18000 Vernier Rd, Harper Woods, MI, US",42.449395,42.447395,-82.92685,-82.92885,"19700","Vernier Rd","Harper Woods","MI","United States"
"134",-86.111706,42.802744,"street_address","rooftop","50 Douglas Ave, Holland, MI, US",42.803744,42.801744,-86.110706,-86.112706,"50","Douglas Ave","Holland","MI","United States"
"135",-86.075827,42.783144,"street_address","rooftop","746 E 16th St, Holland, MI, US",42.784144,42.782144,-86.074827,-86.076827,"746","E 16th St","Holland","MI","United States"
"136",-86.123633,42.698457,"street_address","rooftop","1185 S. Washington, Holland, MI, US",42.699457,42.697457,-86.122633,-86.124633,"3800","S Washington Rd","Holland","MI","United States"
"137",-86.136728,42.827632,"street_address","rooftop","993 Butternut Drive, Holland, MI, US",42.828632,42.826632,-86.135728,-86.137728,"993","Butternut Dr","Holland","MI","United States"
"138",-86.0907,42.826555,"street_address","rooftop","3259 West Shore Drive, Holland, MI, US",42.827555,42.825555,-86.0897,-86.0917,"2999","W Shore Dr","Holland","MI","United States"
"139",-86.0907,42.826555,"street_address","rooftop","3320 West Shore Dr, Holland, MI, US",42.827555,42.825555,-86.0897,-86.0917,"2998","W Shore Dr","Holland","MI","United States"
"140",-86.0907,42.826555,"street_address","rooftop","3456 W Shore Dr, Holland, MI, US",42.827555,42.825555,-86.0897,-86.0917,"2998","W Shore Dr","Holland","MI","United States"
"141",-83.752984,42.633085,"street_address","rooftop","10025 E Highland Rd, Howell, MI, US",42.634085,42.632085,-83.751984,-83.753984,"9999","E Highland Rd","Howell","MI","United States"
"142",-85.851739,42.887478,"street_address","rooftop","6480 28th Ave, Hudsonville, MI, US",42.888478,42.886478,-85.850739,-85.852739,"6480","28th Ave","Hudsonville","MI","United States"
"143",-84.40135,42.24587,"locality","approximate","1801 North West Ave., Jackson, MI, US",42.2903327942,42.1898651123,-84.3369979858,-84.4798202515,NA,NA,"Jackson, MI, US",NA,"USA"
"144",-84.40135,42.24587,"locality","approximate","3333 E Michigan Ave, Jackson, MI, US",42.2903327942,42.1898651123,-84.3369979858,-84.4798202515,NA,NA,"Jackson, MI, US",NA,"USA"
"145",-85.794951,42.907081,"street_address","rooftop","0-550 Baldwin St, Jenison, MI, US",42.908081,42.906081,-85.793951,-85.795951,"550","Baldwin St","Jenison","MI","United States"
"146",-85.646689,42.270033,"street_address","rooftop","4612 Stadium Drive, Kalamazoo, MI, US",42.271033,42.269033,-85.645689,-85.647689,"4612","Stadium Dr","Kalamazoo","MI","United States"
"147",-85.614925,42.259786,"street_address","rooftop","2130 Parkview, Parkview Center, Kalamazoo, MI, US",42.260786,42.258786,-85.613925,-85.615925,"2130","Parkview Ave","Kalamazoo","MI","United States"
"148",-85.614925,42.259786,"street_address","rooftop","2130 Parkview, Kalamazoo, MI, US",42.260786,42.258786,-85.613925,-85.615925,"2130","Parkview Ave","Kalamazoo","MI","United States"
"149",-85.652307,42.296286,"street_address","rooftop","5350 W Main St, Kalamazoo, MI, US",42.297286,42.295286,-85.651307,-85.653307,"5350","W Main St","Kalamazoo","MI","United States"
"150",-85.652512,42.296279,"street_address","rooftop","5370 West Main Street, Kalamazoo, MI, US",42.297279,42.295279,-85.651512,-85.653512,"5370","W Main St","Kalamazoo","MI","United States"
"151",-85.624911,42.849259,"street_address","rooftop","6333 Kalamazoo Avenue SE, Suite 900, Kentwood, MI, US",42.850259,42.848259,-85.623911,-85.625911,"6333","Kalamazoo Ave SE","Grand Rapids","MI","United States"
"152",-83.244461,42.787027,"street_address","rooftop","590 Lapeer Rd, Lake Orion, MI, US",42.788027,42.786027,-83.243461,-83.245461,"590","N Lapeer Rd","Lake Orion","MI","United States"
"153",-83.627261,41.749125,"street_address","rooftop","3462 Sterns Rd, Lambertville, MI, US",41.750125,41.748125,-83.626261,-83.628261,"3462","W Sterns Rd","Lambertville","MI","United States"
"154",-84.648878,42.741048,"street_address","rooftop","6430 W Saginaw Hwy, Lansing, MI, US",42.742048,42.740048,-84.647878,-84.649878,"6800","W Saginaw Hwy","Lansing","MI","United States"
"155",-84.538274,42.660954,"street_address","rooftop","6715 S. Cedar Street, Lansing, MI, US",42.661954,42.659954,-84.537274,-84.539274,"6699","S Cedar St","Lansing","MI","United States"
"156",-83.316717,43.043517,"street_address","rooftop","1221 Demille Street, Lapeer, MI, US",43.044517,43.042517,-83.315717,-83.317717,"899","Demille Rd","Lapeer","MI","United States"
"157",-83.176313,42.250014,"street_address","rooftop","1845 Southfield Road, Laurel Park Place, Lincoln Park, MI, US",42.251014,42.249014,-83.175313,-83.177313,"1299","Southfield Rd","Lincoln Park","MI","United States"
"158",NA,NA,NA,NA,NA,NA,NA,NA,NA,NA,NA,NA,NA,NA
"159",-83.333488,42.376946,"street_address","rooftop","12679 Middlebelt Rd., Livonia, MI, US",42.377946,42.375946,-83.332488,-83.334488,"12679","Middlebelt Rd","Livonia","MI","United States"
"160",-83.465826,42.407289,"street_address","rooftop","30935 5 Mile Rd, Livonia, MI, US",42.408289,42.406289,-83.464826,-83.466826,"42701","Mill St","Northville","MI","United States"
"161",-83.33295,42.365631,"street_address","rooftop","11011 Middlebelt Rd, Livonia, MI, US",42.366631,42.364631,-83.33195,-83.33395,"11011","Middlebelt Rd","Livonia","MI","United States"
"162",-84.6256,45.86446,"null","approximate","312 South Huron Ave, Mackinac City, MI, US",45.8864021301,45.8019981384,-84.5837402344,-84.6918869019,NA,NA,NA,NA,"USA"
"163",-87.991557,46.509782,"street_address","rooftop","7308 Main St, Mackinac Island, MI, US",46.510782,46.508782,-87.990557,-87.992557,"6998","Main St","Champion","MI","United States"
"164",-82.91016,42.67279,"null","approximate","21555 21 Mile Rd, Macomb, MI, US",42.9009513855,42.4202880859,-82.6995849609,-83.1263580322,NA,NA,NA,NA,"USA"
"165",-82.91016,42.67279,"null","approximate","20877 Hall Rd, Macomb, MI, US",42.9009513855,42.4202880859,-82.6995849609,-83.1263580322,NA,NA,NA,NA,"USA"
"166",-82.91642,42.673,"null","approximate","20801 Hall Rd, Macomb Township, MI, US",42.7424888611,42.6048202515,-82.844833374,-82.9967269897,NA,NA,NA,NA,"USA"
"167",-83.110055,42.504537,"street_address","rooftop","600 W 12 Mile Rd, Madison Heights, MI, US",42.505537,42.503537,-83.109055,-83.111055,"600","W 12 Mile Rd","Madison Heights","MI","United States"
"168",-83.106749,42.527328,"street_address","rooftop","32001 John R Rd, Madison Heights, MI, US",42.528328,42.526328,-83.105749,-83.107749,"32001","John R Rd","Madison Heights","MI","United States"
"169",-87.280464,46.438268,"street_address","rooftop","3105 US 41 West, Marquette, MI, US",46.439268,46.437268,-87.279464,-87.281464,"6801","US Hwy 41 S","Marquette","MI","United States"
"170",-87.280464,46.438268,"street_address","rooftop","3250 US Hwy 41 W, Marquette, MI, US",46.439268,46.437268,-87.279464,-87.281464,"6800","US Hwy 41 S","Marquette","MI","United States"
"171",-87.396306,46.556568,"street_address","rooftop","1401 Presque Isle Ave, Marquette, MI, US",46.557568,46.555568,-87.395306,-87.397306,"1401","Presque Isle Ave","Marquette","MI","United States"
"172",-84.993516,42.269622,"street_address","rooftop","15900 W Michigan Ave, Marshall, MI, US",42.270622,42.268622,-84.992516,-84.994516,"15799","W Michigan Ave","Marshall","MI","United States"
"173",-82.499994,42.91189,"street_address","rooftop","205 S Range Rd, Eastman Shopping Center, Marysville, MI, US",42.91289,42.91089,-82.498994,-82.500994,"205","Range Rd","Smiths Creek","MI","United States"
"174",-84.24721,43.661691,"street_address","rooftop","7201 Eastman Avenue, Midland, MI, US",43.662691,43.660691,-84.24621,-84.24821,"7201","Eastman Ave","Midland","MI","United States"
"175",-83.600183,42.583378,"street_address","rooftop","525 N. Main, 250, Milford, MI, US",42.584378,42.582378,-83.599183,-83.601183,"525","S Main St","Milford","MI","United States"
"176",-83.605695,42.594303,"street_address","rooftop","670 Highland Ave, Milford, MI, US",42.595303,42.593303,-83.604695,-83.606695,"670","Highland Ave","Milford","MI","United States"
"177",-84.774062,43.589824,"street_address","rooftop","103 E Preston, Mount Pleasant, MI, US",43.590824,43.588824,-84.773062,-84.775062,"301","E Preston St","Mount Pleasant","MI","United States"
"178",-84.766925,43.575457,"street_address","rooftop","4097 E Blue Grass Rd, Mount Pleasant, MI, US",43.576457,43.574457,-84.765925,-84.767925,"4097","E Blue Grass Rd","Mount Pleasant","MI","United States"
"179",-84.758353,43.61186,"street_address","rooftop","5655 East Pickard St, Mount Pleasant, MI, US",43.61286,43.61086,-84.757353,-84.759353,"4998","E Pickard St","Mount Pleasant","MI","United States"
"180",-86.205542,43.214701,"street_address","rooftop","5057 Harvey St, Muskegon, MI, US",43.215701,43.213701,-86.204542,-86.206542,"2499","Harvey St","Muskegon","MI","United States"
"181",-86.205742,43.152238,"street_address","rooftop","5506 S. Harvey St, Lyon Towne Center, Muskegon, MI, US",43.153238,43.151238,-86.204742,-86.206742,"5506","S Harvey St","Muskegon","MI","United States"
"182",-84.35913,41.848574,"street_address","rooftop","30808 Lyon Center Drive East, New Hudson, MI, US",41.849574,41.847574,-84.35813,-84.36013,"698","Center","Hudson","MI","United States"
"183",-86.24714,41.821035,"street_address","rooftop","720 S 11th St, Niles, MI, US",41.822035,41.820035,-86.24614,-86.24814,"720","S 11th St","Niles","MI","United States"
"184",-83.483152,42.434593,"street_address","rooftop","425 N Center, North Ridge Grove Retail Center, Northville, MI, US",42.435593,42.433593,-83.482152,-83.484152,"425","N Center St","Northville","MI","United States"
"185",-83.433405,42.431379,"street_address","rooftop","20055 Haggerty Road, Northville, MI, US",42.432379,42.430379,-83.432405,-83.434405,"20055","Haggerty Rd","Northville","MI","United States"
"186",-83.480335,42.431162,"street_address","rooftop","302 East Main Street, Northville, MI, US",42.432162,42.430162,-83.479335,-83.481335,"302","E Main St","Northville","MI","United States"
"187",-83.475872,42.489119,"street_address","rooftop","27342-X Novi Road, Novi, MI, US",42.490119,42.488119,-83.474872,-83.476872,"27342","Novi Rd","Novi","MI","United States"
"188",-83.442357,42.500289,"street_address","rooftop","27855 Cabot Dr., TBD, Twelve Oaks, Novi, MI, US",42.501289,42.499289,-83.441357,-83.443357,"27855","Cabot Dr","Novi","MI","United States"
"189",-83.475945,42.491179,"street_address","rooftop","27500 NOVI RD, SPACE C-282, NOVI, MI, US",42.492179,42.490179,-83.474945,-83.476945,"27500","Novi Rd","Novi","MI","United States"
"190",-83.584182,42.537428,"street_address","rooftop","TBD, Novi, MI, US",42.538428,42.536428,-83.583182,-83.585182,"3801","Dabate Ct","Milford","MI","United States"
"191",-83.518316,42.490427,"street_address","rooftop","47650 Grand River Ave, Novi, MI, US",42.491427,42.489427,-83.517316,-83.519316,"47650","Grand River Ave","Novi","MI","United States"
"192",-83.535708,42.491653,"street_address","rooftop","27100 Wixom Rd, West Oaks II, Novi, MI, US",42.492653,42.490653,-83.534708,-83.536708,"27100","Wixom Rd","Novi","MI","United States"
"193",-83.476279,42.495312,"street_address","rooftop","27795-B Novi Road, Space F-102, Novi, MI, US",42.496312,42.494312,-83.475279,-83.477279,"27795","Novi Rd","Novi","MI","United States"
"194",-83.475975,42.491714,"street_address","rooftop","27550 Novi Road, Maples Place, Novi, MI, US",42.492714,42.490714,-83.474975,-83.476975,"27550","Novi Rd","Northville","MI","United States"
"195",-83.466495,42.526262,"street_address","rooftop","42151 Fourteen Mile Road, Novi, MI, US",42.527262,42.525262,-83.465495,-83.467495,"42151","W 14 Mile Rd","Novi","MI","United States"
"196",-83.201621,42.471142,"street_address","rooftop","24840 Greenfield Road, Oak Park, MI, US",42.472142,42.470142,-83.200621,-83.202621,"24598","Greenfield Rd","Oak Park","MI","United States"
"197",-83.196837,42.739302,"street_address","rooftop","4888 Adams Rd., Oakland, MI, US",42.740302,42.738302,-83.195837,-83.197837,"3998","Adams Rd","Oakland","MI","United States"
"198",-84.416673,42.724237,"street_address","rooftop","4890 Marsh Rd, Meridian Crossing, Okemos, MI, US",42.725237,42.723237,-84.415673,-84.417673,"4890","Marsh Rd","Okemos","MI","United States"
"199",-84.434969,42.684402,"street_address","rooftop","3552 Meridian Crossing Drive, Orchard Lake Village, Okemos, MI, US",42.685402,42.683402,-84.433969,-84.435969,"3552","Meridian Crossings Dr","Okemos","MI","United States"
"200",-83.364202,42.552928,"street_address","rooftop","4200 Orchard Lake Road, TBD, Orchard Lake, MI, US",42.553928,42.551928,-83.363202,-83.365202,"4300","Orchard Crest Dr","West Bloomfield","MI","United States"
"201",-83.27342,42.75235,"null","approximate","4960 S. Baldwin Road, Orion Township, MI, US",NA,NA,NA,NA,NA,NA,NA,NA,"USA"
"202",-85.037868,45.357623,"street_address","rooftop","1163 N US-31, Petoskey, MI, US",45.358623,45.356623,-85.036868,-85.038868,"4701","Old US 31 Hwy","Petoskey","MI","United States"
"203",-83.864544,42.491586,"street_address","rooftop","3650 Carpenter Rd., Pittsfield, MI, US",42.492586,42.490586,-83.863544,-83.865544,"7500","Pettysville Rd","Pinckney","MI","United States"
"204",-83.953984,42.421264,"street_address","rooftop","3141 Ann Arbor-Saline Rd, Mayflower Center, Pittsfield Township, MI, US",42.422264,42.420264,-83.952984,-83.954984,"1698","Anne Dr","Pinckney","MI","United States"
"205",-83.469473,42.369725,"street_address","rooftop","803 W Ann Arbor Tr., Plymouth, MI, US",42.370725,42.368725,-83.468473,-83.470473,"803","W Ann Arbor Trl","Plymouth","MI","United States"
"206",-83.55321,42.348852,"street_address","rooftop","44525 Ann Arbor Rd W, Plymouth, MI, US",42.349852,42.347852,-83.55221,-83.55421,"10999","Ann Arbor Rd W","Plymouth","MI","United States"
"207",-85.593327,42.215608,"street_address","rooftop","525 Romence Rd, The Crossroads, Portage, MI, US",42.216608,42.214608,-85.592327,-85.594327,"525","Romence Rd","Portage","MI","United States"
"208",NA,NA,NA,NA,NA,NA,NA,NA,NA,NA,NA,NA,NA,NA
"209",-83.274985,42.359652,"street_address","rooftop","9052 Telegraph Road, Redford, MI, US",42.360652,42.358652,-83.273985,-83.275985,"9052","Telegraph Rd","Redford","MI","United States"
"210",-83.13709,42.753064,"street_address","rooftop","3175 Rochester Rd, Rochester, MI, US",42.754064,42.752064,-83.13609,-83.13809,"3175","Rochester Rd","Rochester","MI","United States"
"211",NA,NA,NA,NA,NA,NA,NA,NA,NA,NA,NA,NA,NA,NA
"212",-83.134411,42.696245,"street_address","rooftop","6950 Rochester Rd., Rochester Hills, MI, US",42.697245,42.695245,-83.133411,-83.135411,"6798","Rochester Rd","Rochester","MI","United States"
"213",-83.137193,42.754847,"street_address","rooftop","3088 S. Rochester Rd., Rochester Hills, MI, US",42.755847,42.753847,-83.136193,-83.138193,"3088","N Rochester Rd","Rochester","MI","United States"
"214",-83.137206,42.75664,"street_address","rooftop","2887 S Rochester Rd, Rochester Hills, MI, US",42.75764,42.75564,-83.136206,-83.138206,"3000","N Rochester Rd","Rochester","MI","United States"
"215",-85.56003,43.12003,"locality","approximate","2799 10 Mile Rd NE, Rockford, MI, US",43.1581115723,43.086315155,-85.4781646729,-85.6056365967,NA,NA,"Rockford, MI, US",NA,"USA"
"216",-85.56003,43.12003,"locality","approximate","201 Marcell Dr NE, Rockford, MI, US",43.1581115723,43.086315155,-85.4781646729,-85.6056365967,NA,NA,"Rockford, MI, US",NA,"USA"
"217",-82.906049,42.52499,"street_address","rooftop","20891 E 13 Mile Rd, Roseville, MI, US",42.52599,42.52399,-82.905049,-82.907049,"20891","E 13 Mile Rd","Roseville","MI","United States"
"218",-82.927357,42.51116,"street_address","rooftop","29036 Gratiot Avenue, Roseville, MI, US",42.51216,42.51016,-82.926357,-82.928357,"29100","Gratiot Ave","Roseville","MI","United States"
"219",-82.91377,42.531835,"street_address","rooftop","31921 Gratiot Avenue, Roseville, MI, US",42.532835,42.530835,-82.91277,-82.91477,"31921","Gratiot Ave","Roseville","MI","United States"
"220",-83.18398,42.51586,"street_address","rooftop","30734 Woodward Ave., Royal Oak, MI, US",42.51686,42.51486,-83.18298,-83.18498,"30734","Woodward Ave","Royal Oak","MI","United States"
"221",-83.181367,42.53256,"street_address","rooftop","5150 Coolidge Hwy, Royal Oak, MI, US",42.53356,42.53156,-83.180367,-83.182367,"5098","Coolidge Hwy","Royal Oak","MI","United States"
"222",-83.192255,42.524046,"street_address","rooftop","31901 Woodward Ave., Royal Oak, MI, US",42.525046,42.523046,-83.191255,-83.193255,"31901","Woodward Ave","Royal Oak","MI","United States"
"223",-83.144227,42.488127,"street_address","rooftop","300 S Main St, Royal Oak, MI, US",42.489127,42.487127,-83.143227,-83.145227,"300","S Main St","Royal Oak","MI","United States"
"224",-124.96998,55.81654,"locality","approximate","12 Mile & Stephenson, Royal Oak, MI, US",NA,NA,NA,NA,NA,NA,"12 Mile, BC, CA",NA,"Canada"
"225",-83.192038,42.517731,"street_address","rooftop","3601 W 13 Mile Rd, Royal Oak, MI, US",42.518731,42.516731,-83.191038,-83.193038,"3601","W 13 Mile Rd","Royal Oak","MI","United States"
"226",-83.969097,43.479929,"street_address","rooftop","2685 Tittabawassee, Saginaw, MI, US",43.480929,43.478929,-83.968097,-83.970097,"2685","Tittabawassee Rd","Saginaw","MI","United States"
"227",-83.97332,43.511209,"street_address","rooftop","7400 Bay Rd, Shelby Square, Saginaw, MI, US",43.512209,43.510209,-83.97232,-83.97432,"7400","Bay Rd","Saginaw","MI","United States"
"228",-86.518283,43.609832,"street_address","rooftop","15069 Hall Rd, Ste A, Shelby Township, MI, US",43.610832,43.608832,-86.517283,-86.519283,"8899","W Shelby Rd","Shelby","MI","United States"
"229",-83.023373,42.701974,"street_address","rooftop","8200 26 Mile Rd, Shelby Township, MI, US",42.702974,42.700974,-83.022373,-83.024373,"10500","Melia Dr","Utica","MI","United States"
"230",103.44278,24.40417,"locality","approximate","26 MILE & VAN DYKE, SHELBY TOWNSHIP, MI, US",24.3711381670837,23.8617393122243,103.506522719026,103.464875425706,NA,NA,"Miyang, CN",NA,"China"
"231",-82.975235,42.674076,"street_address","rooftop","51341 Hayes Rd, Shelby Township, MI, US",42.675076,42.673076,-82.974235,-82.976235,"51341","Hayes Rd","Utica","MI","United States"
"232",-82.995273,42.627364,"street_address","rooftop","13221 Hall Road, Shelby Township, MI, US",42.628364,42.626364,-82.994273,-82.996273,"13275","Hall Rd","Utica","MI","United States"
"233",-83.556357,42.463926,"street_address","rooftop","51847 Ten Mile Road, South Lyon, MI, US",42.464926,42.462926,-83.555357,-83.557357,"51847","10 Mile Rd","Northville","MI","United States"
"234",-82.526597,42.621977,"street_address","rooftop","24529 12 Mile Road, Southfield, MI, US",42.622977,42.620977,-82.525597,-82.527597,"200","Mill Rd","Algonac","MI","United States"
"235",-83.223145,42.512438,"street_address","rooftop","30333 Southfield Rd, Southfield, MI, US",42.513438,42.511438,-83.222145,-83.224145,"30333","Southfield Rd","Southfield","MI","United States"
"236",-83.220447,42.452332,"street_address","rooftop","30160 Southfield Road, Applegate Square, Southfield, MI, US",42.453332,42.451332,-83.219447,-83.221447,"22099","Southfield Freeway Svc Rd","Southfield","MI","United States"
"237",-83.297395,42.496806,"street_address","rooftop","29999 Northwestern Highway, Southfield, MI, US",42.497806,42.495806,-83.296395,-83.298395,"29099","Northwestern Hwy","Southfield","MI","United States"
"238",-83.783,41.73088,"locality","approximate","14099 Pardee Rd, Southland, MI, US",NA,NA,NA,NA,NA,NA,"Southland, MI, US",NA,"USA"
"239",-85.52774,41.91441,"null","approximate","2121 S Cleveland, St Joseph, MI, US",42.09557724,41.7492218018,-85.294052124,-85.7706069946,NA,NA,NA,NA,"USA"
"240",-83.087347,42.563785,"street_address","rooftop","2148 Metropolitan Parkway, Sterling Heights, MI, US",42.564785,42.562785,-83.086347,-83.088347,"2148","Metropolitan Pkwy","Sterling Heights","MI","United States"
"241",-82.992827,42.617514,"street_address","rooftop","43893 Schoenherr Rd, Lakeside Mall, Sterling Heights, MI, US",42.618514,42.616514,-82.991827,-82.993827,"43893","Schoenherr Rd","Sterling Heights","MI","United States"
"242",NA,NA,NA,NA,NA,NA,NA,NA,NA,NA,NA,NA,NA,NA
"243",-82.987177,42.625388,"street_address","rooftop","14200 Lakeside Circle, Lakeside Mall, Sterling Heights, MI, US",42.626388,42.624388,-82.986177,-82.988177,"14200","Lakeside Cir","Sterling Heights","MI","United States"
"244",-83.029221,42.561102,"street_address","rooftop","36350 Van Dyke Road, Sterling Heights, MI, US",42.562102,42.560102,-83.028221,-83.030221,"36350","Van Dyke Ave","Sterling Heights","MI","United States"
"245",-83.029033,42.556603,"street_address","rooftop","35700 Van Dyke Ave, Sterling Heights, MI, US",42.557603,42.555603,-83.028033,-83.030033,"35700","Van Dyke Ave","Sterling Heights","MI","United States"
"246",-83.086119,42.563801,"street_address","rooftop","2310 Metropolitan Pkwy, Sterling Heights, MI, US",42.564801,42.562801,-83.085119,-83.087119,"2310","Metropolitan Pkwy","Sterling Heights","MI","United States"
"247",-83.260583,42.197658,"street_address","rooftop","23300 Eureka Rd, Taylor, MI, US",42.198658,42.196658,-83.259583,-83.261583,"23300","Eureka Rd","Taylor","MI","United States"
"248",-83.262909,42.197679,"street_address","rooftop","23000 Eureka Road, K101, Taylor, MI, US",42.198679,42.196679,-83.261909,-83.263909,"23000","Eureka Rd","Taylor","MI","United States"
"249",-85.636006,44.725527,"street_address","rooftop","3130 S Airport Rd, Traverse City, MI, US",44.726527,44.724527,-85.635006,-85.637006,"3130","S Airport Rd W","Traverse City","MI","United States"
"250",-85.676342,44.693963,"locality","rooftop","3955 US-31 S, Traverse City, MI, US",44.694963,44.692963,-85.675342,-85.677342,NA,NA,"Traverse City","MI","United States"
"251",-83.183846,42.561057,"street_address","rooftop","2750 W Big Beaver Rd, Troy, MI, US",42.562057,42.560057,-83.182846,-83.184846,"2750","W Big Beaver Rd","Troy","MI","United States"
"252",-83.091025,42.614306,"street_address","rooftop","44201 Dequindre Rd, Troy, MI, US",42.615306,42.613306,-83.090025,-83.092025,"44201","Dequindre Rd","Troy","MI","United States"
"253",-83.167628,42.561627,"street_address","rooftop","1434 W. Big Beaver, Somerset North Mall, Troy, MI, US",42.562627,42.560627,-83.166628,-83.168628,"1434","W Big Beaver Rd","Troy","MI","United States"
"254",-82.98295,42.510766,"street_address","rooftop","2800 Big Beaver Road, N122, The Somerset Collection, Troy, MI, US",42.511766,42.509766,-82.98195,-82.98395,"13900","Somerset Ln","Troy","MI","United States"
"255",-83.092607,42.563695,"street_address","rooftop","2800 W. BIG BEAVER, SPACE Q-121, TROY, MI, US",42.564695,42.562695,-83.091607,-83.093607,"2800","E Big Beaver Rd","Troy","MI","United States"
"256",-83.092773,42.564102,"street_address","rooftop","2801 W Big Beaver Rd, K238, Troy, MI, US",42.565102,42.563102,-83.091773,-83.093773,"2801","E Big Beaver Rd","Troy","MI","United States"
"257",-83.165185,42.548015,"street_address","rooftop","1470 W. Maple Road, Troy, MI, US",42.549015,42.547015,-83.164185,-83.166185,"1470","W Maple Rd","Troy","MI","United States"
"258",-83.130466,42.621768,"street_address","rooftop","6908 Rochester Road, Troy, MI, US",42.622768,42.620768,-83.129466,-83.131466,"6908","Rochester Rd","Troy","MI","United States"
"259",-83.120283,42.533915,"street_address","rooftop","500 W 14 Mile Rd, Troy, MI, US",42.534915,42.532915,-83.119283,-83.121283,"1000","W 14 Mile Rd","Troy","MI","United States"
"260",-83.169197,42.598695,"street_address","rooftop","5385 Crooks Rd., Troy, MI, US",42.599695,42.597695,-83.168197,-83.170197,"5385","Crooks Rd","Troy","MI","United States"
"261",-83.110404,42.563725,"street_address","rooftop","1921 East Big Beaver Rd, Troy, MI, US",42.564725,42.562725,-83.109404,-83.111404,"1921","E Big Beaver Rd","Troy","MI","United States"
"262",-83.10253,42.534315,"street_address","rooftop","398 W 14 Mile Road, Suite A, Troy, MI, US",42.535315,42.533315,-83.10153,-83.10353,"528","E 14 Mile Rd","Madison Heights","MI","United States"
"263",-83.185891,42.543638,"street_address","rooftop","1301 Coolidge Hwy, Troy, MI, US",42.544638,42.542638,-83.184891,-83.186891,"1301","Coolidge Hwy","Troy","MI","United States"
"264",-83.023373,42.701974,"street_address","rooftop","12129 23 Mile Rd, Utica, MI, US",42.702974,42.700974,-83.022373,-83.024373,"10500","Melia Dr","Utica","MI","United States"
"265",-85.688456,42.999697,"street_address","rooftop","3287 Alpine Ave NW, Walker, MI, US",43.000697,42.998697,-85.687456,-85.689456,"1999","Alpine Ave NW","Grand Rapids","MI","United States"
"266",-83.438556,42.543712,"street_address","rooftop","495 Haggerty Rd, Walled Lake, MI, US",42.544712,42.542712,-83.437556,-83.439556,"495","Haggerty Rd","Walled Lake","MI","United States"
"267",-83.512851,42.525121,"street_address","rooftop","47060 Pontiac Trl, Walled Lake, MI, US",42.526121,42.524121,-83.511851,-83.513851,"47060","W Pontiac Trl","Walled Lake","MI","United States"
"268",-83.085625,42.505205,"street_address","rooftop","28800 Dequinder, Warren, MI, US",42.506205,42.504205,-83.084625,-83.086625,"28798","Dequindre Rd","Warren","MI","United States"
"269",-83.046876,42.507587,"street_address","rooftop","29215 Mound Road, Waterford Town Center, Warren, MI, US",42.508587,42.506587,-83.045876,-83.047876,"29215","Mound Rd","Warren","MI","United States"
"270",-83.388758,42.660399,"street_address","rooftop","5129 Highland Road, Waterford, MI, US",42.661399,42.659399,-83.387758,-83.389758,"5129","Highland Rd","Waterford","MI","United States"
"271",-83.360401,42.533411,"street_address","rooftop","6765 Orchard Lake Rd, West Bloomfield, MI, US",42.534411,42.532411,-83.359401,-83.361401,"6765","Orchard Lake Rd","West Bloomfield","MI","United States"
"272",-83.384971,42.338933,"street_address","rooftop","35401 Warren Rd, Westland, MI, US",42.339933,42.337933,-83.383971,-83.385971,"35401","Warren Rd","Westland","MI","United States"
"273",-83.402613,42.337363,"street_address","rooftop","36545 Warren Road, Westland, MI, US",42.338363,42.336363,-83.401613,-83.403613,"36545","Warren Rd","Westland","MI","United States"
"274",-83.528225,42.649078,"street_address","rooftop","6001 Highland Rd, White Lake, MI, US",42.650078,42.648078,-83.527225,-83.529225,"6001","Highland Rd","White Lake","MI","United States"
"275",-118.40188,34.66616,"null","approximate","Elizabeth Lake & M-59, White Lake, MI, US",34.7069740295,34.6577110291,-118.324417114,-118.410469055,NA,NA,NA,NA,"USA"
"276",-84.283643,42.689018,"street_address","rooftop","151 W Grand River Ave, Williamston, MI, US",42.690018,42.688018,-84.282643,-84.284643,"151","W Grand River Ave","Williamston","MI","United States"
"277",-83.226336,42.141819,"street_address","rooftop","22850 Allen Road, Woodhaven, MI, US",42.142819,42.140819,-83.225336,-83.227336,"22850","Allen Rd","Trenton","MI","United States"
"278",-83.22592,42.136753,"street_address","rooftop","23555 Allen Rd, Woodhaven, MI, US",42.137753,42.135753,-83.22492,-83.22692,"23555","Allen Rd","Trenton","MI","United States"
"279",-85.683934,42.865089,"street_address","rooftop","5455 Clyde Park Ave SW, Wyoming, MI, US",42.866089,42.864089,-85.682934,-85.684934,"5455","Clyde Park Ave SW","Grand Rapids","MI","United States"
"280",-85.680602,42.94857,"street_address","rooftop","2355 Health Drive, A, Wyoming, MI, US",42.94957,42.94757,-85.679602,-85.681602,"599","A St SW","Grand Rapids","MI","United States"
"281",-83.629243,42.248053,"street_address","rooftop","900 Oakwood St, Ypsilanti, MI, US",42.249053,42.247053,-83.628243,-83.630243,"798","Oakwood St","Ypsilanti","MI","United States"
"282",-83.619345,42.21152,"street_address","rooftop","2010 Whitaker Road, Ypsilanti, MI, US",42.21252,42.21052,-83.618345,-83.620345,"2010","Whittaker Rd","Ypsilanti","MI","United States"
"283",-86.015191,42.826965,"street_address","rooftop","9479 Riley Street, Zeeland, MI, US",42.827965,42.825965,-86.014191,-86.016191,"9479","Riley St","Zeeland","MI","United States"
